{
  "type": "FeatureCollection",
  "features": [
    { "type": "Feature", "geometry": { "type": "Point", "coordinates": [-111.8910, 40.7608] }, "properties": { "intensity": 0.95, "label": "Downtown" } },
    { "type": "Feature", "geometry": { "type": "Point", "coordinates": [-111.8850, 40.7550] }, "properties": { "intensity": 0.85, "label": "Central City" } },
    { "type": "Feature", "geometry": { "type": "Point", "coordinates": [-111.8500, 40.7600] }, "properties": { "intensity": 0.9, "label": "University District" } },
    { "type": "Feature", "geometry": { "type": "Point", "coordinates": [-111.8750, 40.7480] }, "properties": { "intensity": 0.7, "label": "Liberty Park" } },
    { "type": "Feature", "geometry": { "type": "Point", "coordinates": [-111.8530, 40.7280] }, "properties": { "intensity": 0.75, "label": "Sugar House" } },
    { "type": "Feature", "geometry": { "type": "Point", "coordinates": [-111.9050, 40.7580] }, "properties": { "intensity": 0.65, "label": "Marmalade" } },
    { "type": "Feature", "geometry": { "type": "Point", "coordinates": [-111.8700, 40.7750] }, "properties": { "intensity": 0.55, "label": "The Avenues" } },
    { "type": "Feature", "geometry": { "type": "Point", "coordinates": [-111.8980, 40.7350] }, "properties": { "intensity": 0.6, "label": "Ballpark" } },
    { "type": "Feature", "geometry": { "type": "Point", "coordinates": [-111.9200, 40.7550] }, "properties": { "intensity": 0.5, "label": "Poplar Grove" } },
    { "type": "Feature", "geometry": { "type": "Point", "coordinates": [-111.9150, 40.7400] }, "properties": { "intensity": 0.55, "label": "Glendale" } },
    { "type": "Feature", "geometry": { "type": "Point", "coordinates": [-111.8400, 40.7500] }, "properties": { "intensity": 0.45, "label": "East Bench" } },
    { "type": "Feature", "geometry": { "type": "Point", "coordinates": [-111.8600, 40.7150] }, "properties": { "intensity": 0.5, "label": "Millcreek" } },
    { "type": "Feature", "geometry": { "type": "Point", "coordinates": [-111.8900, 40.7700] }, "properties": { "intensity": 0.7, "label": "North Temple" } },
    { "type": "Feature", "geometry": { "type": "Point", "coordinates": [-111.9300, 40.7650] }, "properties": { "intensity": 0.4, "label": "Fairpark" } },
    { "type": "Feature", "geometry": { "type": "Point", "coordinates": [-111.8350, 40.7650] }, "properties": { "intensity": 0.8, "label": "Research Park" } },
    { "type": "Feature", "geometry": { "type": "Point", "coordinates": [-111.8450, 40.6950] }, "properties": { "intensity": 0.3, "label": "Olympus Cove" } },
    { "type": "Feature", "geometry": { "type": "Point", "coordinates": [-111.8650, 40.7350] }, "properties": { "intensity": 0.65, "label": "9th & 9th" } },
    { "type": "Feature", "geometry": { "type": "Point", "coordinates": [-111.8800, 40.7800] }, "properties": { "intensity": 0.35, "label": "Capitol Hill" } }
  ]
}
